[{"name":"McDonald's (Shobra)","latlng":{"lat":30.0774687,"lng":31.245793100000014},"thirdPartyContent":""},{"name":"Pizza Hut (Giza)","latlng":{"lat":30.0246363,"lng":31.216729999999984},"thirdPartyContent":""},{"name":"Pizza Hut (AlHaram)","latlng":{"lat":29.9961615,"lng":31.165552100000014},"thirdPartyContent":""},{"name":"AUC (American University in Cairo)","latlng":{"lat":30.043021,"lng":31.236610499999983},"thirdPartyContent":""},{"name":"GUC (German University in Cairo)","latlng":{"lat":29.9866117,"lng":31.441511300000002},"thirdPartyContent":""},{"name":"Smart Village","latlng":{"lat":30.0731306,"lng":31.01806829999998},"thirdPartyContent":""},{"name":"Cairo University","latlng":{"lat":30.0273275,"lng":31.208633400000053},"thirdPartyContent":""},{"name":"Cairo International Airport","latlng":{"lat":30.1188025,"lng":31.410873400000014},"thirdPartyContent":""},{"name":"Giza Pyramids","latlng":{"lat":29.9790858,"lng":31.13448619999997},"thirdPartyContent":""},{"name":"Cairo Tower","latlng":{"lat":30.0458988,"lng":31.22432559999993},"thirdPartyContent":""}]